{"state":"Atlántico","stateKey":"atlantico","cities":[{"cityId":"barranquilla","cityName":"Barranquilla","state":"Atlántico","totalBarrios":45,"zones":[{"name":"El Prado","postalCode":"080101","localidad":"Norte-Centro Histórico","lat":10.9945,"lng":-74.789},{"name":"Alto Prado","postalCode":"080102","localidad":"Norte-Centro Histórico","lat":10.998,"lng":-74.792},{"name":"Riomar","postalCode":"080201","localidad":"Riomar","lat":11.012,"lng":-74.835},{"name":"Villa Country","postalCode":"080202","localidad":"Riomar","lat":11.008,"lng":-74.828},{"name":"Buenavista","postalCode":"080203","localidad":"Riomar","lat":11.006,"lng":-74.82},{"name":"Villa Santos","postalCode":"080204","localidad":"Riomar","lat":11.015,"lng":-74.818},{"name":"Ciudad Jardín","postalCode":"080301","localidad":"Norte-Centro Histórico","lat":10.997,"lng":-74.785},{"name":"Boston","postalCode":"080302","localidad":"Norte-Centro Histórico","lat":10.992,"lng":-74.783},{"name":"El Recreo","postalCode":"080401","localidad":"Norte-Centro Histórico","lat":10.989,"lng":-74.781},{"name":"Barrio Abajo","postalCode":"080402","localidad":"Norte-Centro Histórico","lat":10.996,"lng":-74.781},{"name":"San Isidro","postalCode":"080501","localidad":"Suroccidente","lat":10.975,"lng":-74.805},{"name":"Los Andes","postalCode":"080502","localidad":"Suroccidente","lat":10.978,"lng":-74.798},{"name":"El Silencio","postalCode":"080601","localidad":"Suroccidente","lat":10.971,"lng":-74.802},{"name":"Las Palmas","postalCode":"080701","localidad":"Suroriente","lat":10.983,"lng":-74.775},{"name":"Modelo","postalCode":"080702","localidad":"Suroriente","lat":10.986,"lng":-74.778},{"name":"Paraíso","postalCode":"080801","localidad":"Suroccidente","lat":10.968,"lng":-74.808},{"name":"Rebolo","postalCode":"080901","localidad":"Suroriente","lat":10.982,"lng":-74.772},{"name":"La Chinita","postalCode":"080902","localidad":"Suroriente","lat":10.979,"lng":-74.77},{"name":"Soledad 2000","postalCode":"081001","localidad":"Metropolitana","lat":10.919,"lng":-74.778},{"name":"Portal de las Américas","postalCode":"081002","localidad":"Metropolitana","lat":10.924,"lng":-74.782},{"name":"El Country","postalCode":"080201","localidad":"Riomar","lat":11.01,"lng":-74.83},{"name":"Andalucía","postalCode":"080204","localidad":"Riomar","lat":11.013,"lng":-74.822},{"name":"Granadillo","postalCode":"080301","localidad":"Norte-Centro Histórico","lat":10.994,"lng":-74.787},{"name":"Bellavista","postalCode":"080302","localidad":"Norte-Centro Histórico","lat":10.99,"lng":-74.785},{"name":"San José","postalCode":"080501","localidad":"Suroccidente","lat":10.972,"lng":-74.803},{"name":"Chiquinquirá","postalCode":"080601","localidad":"Suroccidente","lat":10.974,"lng":-74.8},{"name":"La Victoria","postalCode":"080701","localidad":"Suroriente","lat":10.981,"lng":-74.773},{"name":"La Sierra","postalCode":"080801","localidad":"Suroccidente","lat":10.97,"lng":-74.806},{"name":"Simón Bolívar","postalCode":"080901","localidad":"Suroriente","lat":10.985,"lng":-74.774},{"name":"San Felipe","postalCode":"080402","localidad":"Norte-Centro Histórico","lat":10.993,"lng":-74.783},{"name":"El Tabor","postalCode":"080101","localidad":"Norte-Centro Histórico","lat":10.996,"lng":-74.787},{"name":"Montecristo","postalCode":"080102","localidad":"Norte-Centro Histórico","lat":11.0,"lng":-74.79},{"name":"San Vicente","postalCode":"080301","localidad":"Norte-Centro Histórico","lat":10.995,"lng":-74.786},{"name":"Las Delicias","postalCode":"080302","localidad":"Norte-Centro Histórico","lat":10.991,"lng":-74.784},{"name":"Los Trupillos","postalCode":"080401","localidad":"Suroriente","lat":10.987,"lng":-74.78},{"name":"La Alboraya","postalCode":"080501","localidad":"Suroccidente","lat":10.976,"lng":-74.804},{"name":"San Roque","postalCode":"080601","localidad":"Suroccidente","lat":10.973,"lng":-74.801},{"name":"La Luz","postalCode":"080701","localidad":"Suroriente","lat":10.984,"lng":-74.776},{"name":"Carrizal","postalCode":"080801","localidad":"Suroccidente","lat":10.969,"lng":-74.807},{"name":"La Manga","postalCode":"080901","localidad":"Suroriente","lat":10.98,"lng":-74.771},{"name":"Santa María (Bquilla)","postalCode":"080202","localidad":"Riomar","lat":11.009,"lng":-74.826},{"name":"El Golf","postalCode":"080201","localidad":"Riomar","lat":11.014,"lng":-74.832},{"name":"Altamira (Bquilla)","postalCode":"080203","localidad":"Riomar","lat":11.007,"lng":-74.824},{"name":"San Salvador","postalCode":"080502","localidad":"Suroccidente","lat":10.977,"lng":-74.797},{"name":"Olaya (Bquilla)","postalCode":"080602","localidad":"Suroccidente","lat":10.972,"lng":-74.804}]},{"cityId":"soledad","cityName":"Soledad","state":"Atlántico","totalBarrios":10,"zones":[{"name":"Soledad Centro","postalCode":"083001","localidad":"Centro","lat":10.918,"lng":-74.764},{"name":"Villa Katanga","postalCode":"083002","localidad":"Sur","lat":10.911,"lng":-74.772},{"name":"Los Almendros","postalCode":"083003","localidad":"Norte","lat":10.925,"lng":-74.758},{"name":"Villa Sol","postalCode":"083004","localidad":"Oriente","lat":10.92,"lng":-74.755},{"name":"La Central","postalCode":"083005","localidad":"Centro","lat":10.916,"lng":-74.766},{"name":"Ciudad Paraíso","postalCode":"083006","localidad":"Sur","lat":10.908,"lng":-74.77},{"name":"El Ferrocarril","postalCode":"083007","localidad":"Occidente","lat":10.919,"lng":-74.775},{"name":"Las Moras","postalCode":"083008","localidad":"Norte","lat":10.928,"lng":-74.761},{"name":"Manuela Beltrán","postalCode":"083009","localidad":"Sur","lat":10.905,"lng":-74.768},{"name":"Hipódromo","postalCode":"083010","localidad":"Oriente","lat":10.923,"lng":-74.752}]}]}