{"state":"Caquetá","stateKey":"caqueta","cities":[{"cityId":"florencia","cityName":"Florencia","state":"Caquetá","totalBarrios":6,"zones":[{"name":"Centro","postalCode":"180001","localidad":"Centro","lat":1.6144,"lng":-75.6062},{"name":"La Vega","postalCode":"180002","localidad":"Norte","lat":1.619,"lng":-75.602},{"name":"Torasso","postalCode":"180003","localidad":"Sur","lat":1.61,"lng":-75.61},{"name":"Juan XXIII","postalCode":"180004","localidad":"Oriente","lat":1.617,"lng":-75.599},{"name":"Los Alpes","postalCode":"180005","localidad":"Occidente","lat":1.612,"lng":-75.613},{"name":"Ciudadela Siglo XXI","postalCode":"180006","localidad":"Sur","lat":1.608,"lng":-75.608}]}]}