{"state":"La Guajira","stateKey":"la-guajira","cities":[{"cityId":"riohacha","cityName":"Riohacha","state":"La Guajira","totalBarrios":7,"zones":[{"name":"Centro","postalCode":"440001","localidad":"Centro","lat":11.5444,"lng":-72.9072},{"name":"Coquivacoa","postalCode":"440002","localidad":"Norte","lat":11.549,"lng":-72.903},{"name":"José Antonio Galán","postalCode":"440003","localidad":"Sur","lat":11.54,"lng":-72.911},{"name":"Boca Grande","postalCode":"440004","localidad":"Oriente","lat":11.552,"lng":-72.898},{"name":"Marbella","postalCode":"440005","localidad":"Norte","lat":11.547,"lng":-72.905},{"name":"El Progreso","postalCode":"440006","localidad":"Sur","lat":11.538,"lng":-72.914},{"name":"Villa Fátima","postalCode":"440007","localidad":"Occidente","lat":11.542,"lng":-72.916}]},{"cityId":"maicao","cityName":"Maicao","state":"La Guajira","totalBarrios":5,"zones":[{"name":"Centro","postalCode":"440420","localidad":"Centro","lat":11.3825,"lng":-72.241},{"name":"La Sabana","postalCode":"440421","localidad":"Norte","lat":11.387,"lng":-72.237},{"name":"San José","postalCode":"440422","localidad":"Sur","lat":11.378,"lng":-72.245},{"name":"El Bosque","postalCode":"440423","localidad":"Oriente","lat":11.385,"lng":-72.235},{"name":"San Martín","postalCode":"440424","localidad":"Occidente","lat":11.38,"lng":-72.248}]}]}