{"state":"Meta","stateKey":"meta","cities":[{"cityId":"villavicencio","cityName":"Villavicencio","state":"Meta","totalBarrios":10,"zones":[{"name":"Centro","postalCode":"500011","localidad":"Comuna 1","lat":4.142,"lng":-73.6266},{"name":"Barzal","postalCode":"500012","localidad":"Comuna 4","lat":4.138,"lng":-73.631},{"name":"La Grama","postalCode":"500021","localidad":"Comuna 5","lat":4.134,"lng":-73.635},{"name":"Caudal","postalCode":"500022","localidad":"Comuna 5","lat":4.13,"lng":-73.628},{"name":"El Buque","postalCode":"500031","localidad":"Comuna 3","lat":4.145,"lng":-73.62},{"name":"Porfía","postalCode":"500032","localidad":"Comuna 8","lat":4.118,"lng":-73.609},{"name":"Llano Lindo","postalCode":"500041","localidad":"Comuna 7","lat":4.128,"lng":-73.64}]}]}