{"state":"Valle del Cauca","stateKey":"valle-del-cauca","cities":[{"cityId":"cali","cityName":"Santiago de Cali","state":"Valle del Cauca","totalBarrios":60,"zones":[{"name":"El Centro","postalCode":"760101","localidad":"Comuna 3","lat":3.4516,"lng":-76.532},{"name":"San Antonio","postalCode":"760102","localidad":"Comuna 3","lat":3.447,"lng":-76.537},{"name":"San Cayetano","postalCode":"760101","localidad":"Comuna 3","lat":3.453,"lng":-76.529},{"name":"Granada","postalCode":"760201","localidad":"Comuna 2","lat":3.459,"lng":-76.535},{"name":"Versalles","postalCode":"760201","localidad":"Comuna 2","lat":3.461,"lng":-76.529},{"name":"Centenario","postalCode":"760202","localidad":"Comuna 2","lat":3.462,"lng":-76.533},{"name":"San Fernando","postalCode":"760401","localidad":"Comuna 19","lat":3.437,"lng":-76.542},{"name":"El Peñón","postalCode":"760402","localidad":"Comuna 3","lat":3.445,"lng":-76.544},{"name":"Bretaña","postalCode":"760301","localidad":"Comuna 4","lat":3.465,"lng":-76.518},{"name":"El Obrero","postalCode":"760301","localidad":"Comuna 4","lat":3.467,"lng":-76.52},{"name":"Ciudad Jardín","postalCode":"760501","localidad":"Comuna 22","lat":3.376,"lng":-76.542},{"name":"El Ingenio","postalCode":"760502","localidad":"Comuna 17","lat":3.394,"lng":-76.531},{"name":"Limonar","postalCode":"760502","localidad":"Comuna 17","lat":3.401,"lng":-76.527},{"name":"Meléndez","postalCode":"760503","localidad":"Comuna 18","lat":3.385,"lng":-76.545},{"name":"Siloé","postalCode":"760601","localidad":"Comuna 20","lat":3.425,"lng":-76.556},{"name":"Aguablanca","postalCode":"760701","localidad":"Comuna 13","lat":3.432,"lng":-76.495},{"name":"Alfonso Bonilla Aragón","postalCode":"760801","localidad":"Comuna 21","lat":3.418,"lng":-76.482},{"name":"El Vallado","postalCode":"760802","localidad":"Comuna 15","lat":3.409,"lng":-76.497},{"name":"Chipichape","postalCode":"760901","localidad":"Comuna 2","lat":3.472,"lng":-76.528},{"name":"Flora Industrial","postalCode":"760902","localidad":"Comuna 2","lat":3.475,"lng":-76.525},{"name":"Juanambú","postalCode":"761001","localidad":"Comuna 2","lat":3.456,"lng":-76.531},{"name":"Santa Teresita","postalCode":"761002","localidad":"Comuna 2","lat":3.454,"lng":-76.527},{"name":"Tequendama","postalCode":"761101","localidad":"Comuna 19","lat":3.433,"lng":-76.538},{"name":"Miraflores","postalCode":"761102","localidad":"Comuna 19","lat":3.429,"lng":-76.535},{"name":"Cristóbal Colón","postalCode":"761201","localidad":"Comuna 19","lat":3.435,"lng":-76.546},{"name":"Pampalinda","postalCode":"761202","localidad":"Comuna 17","lat":3.408,"lng":-76.524},{"name":"Caney","postalCode":"761301","localidad":"Comuna 17","lat":3.372,"lng":-76.523},{"name":"Valle del Lili","postalCode":"761302","localidad":"Comuna 17","lat":3.368,"lng":-76.526},{"name":"Pance","postalCode":"761401","localidad":"Comuna 22","lat":3.356,"lng":-76.552},{"name":"La Hacienda","postalCode":"761402","localidad":"Comuna 22","lat":3.364,"lng":-76.548},{"name":"Santa Mónica","postalCode":"760201","localidad":"Comuna 2","lat":3.463,"lng":-76.531},{"name":"San Vicente","postalCode":"760301","localidad":"Comuna 4","lat":3.468,"lng":-76.516},{"name":"Salomia","postalCode":"760901","localidad":"Comuna 5","lat":3.47,"lng":-76.524},{"name":"El Guabal","postalCode":"760701","localidad":"Comuna 8","lat":3.44,"lng":-76.515},{"name":"El Cedro","postalCode":"760501","localidad":"Comuna 22","lat":3.38,"lng":-76.54},{"name":"La Flora","postalCode":"760902","localidad":"Comuna 5","lat":3.478,"lng":-76.523},{"name":"Capri","postalCode":"761101","localidad":"Comuna 17","lat":3.42,"lng":-76.53},{"name":"Pasoancho","postalCode":"761201","localidad":"Comuna 17","lat":3.415,"lng":-76.528},{"name":"Decepaz","postalCode":"760801","localidad":"Comuna 21","lat":3.412,"lng":-76.485},{"name":"Mariano Ramos","postalCode":"760802","localidad":"Comuna 16","lat":3.42,"lng":-76.51},{"name":"Alameda","postalCode":"760101","localidad":"Comuna 3","lat":3.45,"lng":-76.534},{"name":"Aranjuez (Cali)","postalCode":"760201","localidad":"Comuna 2","lat":3.46,"lng":-76.53},{"name":"La Merced (Cali)","postalCode":"760101","localidad":"Comuna 3","lat":3.454,"lng":-76.531},{"name":"Santa Rita (Cali)","postalCode":"760301","localidad":"Comuna 4","lat":3.466,"lng":-76.519},{"name":"Jorge Isaacs","postalCode":"760301","localidad":"Comuna 4","lat":3.464,"lng":-76.521},{"name":"Normandía (Cali)","postalCode":"760401","localidad":"Comuna 19","lat":3.438,"lng":-76.54},{"name":"Nueva Floresta","postalCode":"760401","localidad":"Comuna 19","lat":3.44,"lng":-76.544},{"name":"El Lido","postalCode":"760402","localidad":"Comuna 19","lat":3.442,"lng":-76.546},{"name":"Los Cámbulos","postalCode":"760402","localidad":"Comuna 19","lat":3.444,"lng":-76.542},{"name":"Colseguros","postalCode":"760501","localidad":"Comuna 22","lat":3.378,"lng":-76.538},{"name":"Río Lili","postalCode":"760502","localidad":"Comuna 17","lat":3.39,"lng":-76.533},{"name":"La Hacienda (Cali)","postalCode":"761301","localidad":"Comuna 17","lat":3.374,"lng":-76.525},{"name":"Unicentro Cali","postalCode":"761302","localidad":"Comuna 17","lat":3.37,"lng":-76.528},{"name":"Quintas de Don Simón","postalCode":"761101","localidad":"Comuna 17","lat":3.41,"lng":-76.526},{"name":"Primero de Mayo","postalCode":"760601","localidad":"Comuna 20","lat":3.427,"lng":-76.554},{"name":"Terrón Colorado","postalCode":"760601","localidad":"Comuna 1","lat":3.458,"lng":-76.549},{"name":"El Diamante (Cali)","postalCode":"760701","localidad":"Comuna 13","lat":3.434,"lng":-76.493},{"name":"Potrero Grande","postalCode":"760801","localidad":"Comuna 21","lat":3.416,"lng":-76.484},{"name":"Poblado I","postalCode":"760802","localidad":"Comuna 13","lat":3.428,"lng":-76.497},{"name":"Villa del Lago","postalCode":"760901","localidad":"Comuna 6","lat":3.474,"lng":-76.526}]},{"cityId":"buenaventura","cityName":"Buenaventura","state":"Valle del Cauca","totalBarrios":8,"zones":[{"name":"Centro (Isla Cascajal)","postalCode":"764020","localidad":"Isla","lat":3.8801,"lng":-77.0189},{"name":"El Piñal","postalCode":"764021","localidad":"Continental","lat":3.885,"lng":-77.012},{"name":"San Francisco","postalCode":"764022","localidad":"Isla","lat":3.877,"lng":-77.022},{"name":"Pueblo Nuevo","postalCode":"764023","localidad":"Isla","lat":3.882,"lng":-77.016},{"name":"La Independencia","postalCode":"764024","localidad":"Continental","lat":3.888,"lng":-77.008},{"name":"Juan XXIII","postalCode":"764025","localidad":"Continental","lat":3.891,"lng":-77.004},{"name":"Alberto Lleras","postalCode":"764026","localidad":"Continental","lat":3.894,"lng":-77.001},{"name":"Brisas del Mar","postalCode":"764027","localidad":"Isla","lat":3.876,"lng":-77.025}]},{"cityId":"palmira","cityName":"Palmira","state":"Valle del Cauca","totalBarrios":8,"zones":[{"name":"Centro","postalCode":"763020","localidad":"Centro","lat":3.5394,"lng":-76.3036},{"name":"La Emilia","postalCode":"763021","localidad":"Norte","lat":3.545,"lng":-76.298},{"name":"Versalles","postalCode":"763022","localidad":"Sur","lat":3.534,"lng":-76.308},{"name":"Zamorano","postalCode":"763023","localidad":"Oriente","lat":3.542,"lng":-76.293},{"name":"Las Mercedes","postalCode":"763024","localidad":"Centro","lat":3.537,"lng":-76.301},{"name":"Coronado","postalCode":"763025","localidad":"Norte","lat":3.548,"lng":-76.296},{"name":"Santa Rita","postalCode":"763026","localidad":"Sur","lat":3.531,"lng":-76.31},{"name":"Llano Grande","postalCode":"763027","localidad":"Occidente","lat":3.535,"lng":-76.315}]},{"cityId":"tulua","cityName":"Tuluá","state":"Valle del Cauca","totalBarrios":6,"zones":[{"name":"Centro","postalCode":"763620","localidad":"Centro","lat":4.0854,"lng":-76.1969},{"name":"La Graciela","postalCode":"763621","localidad":"Norte","lat":4.09,"lng":-76.193},{"name":"Victoria","postalCode":"763622","localidad":"Sur","lat":4.081,"lng":-76.201},{"name":"Farfán","postalCode":"763623","localidad":"Oriente","lat":4.087,"lng":-76.19},{"name":"El Príncipe","postalCode":"763624","localidad":"Occidente","lat":4.083,"lng":-76.204},{"name":"Alvernia","postalCode":"763625","localidad":"Norte","lat":4.092,"lng":-76.195}]},{"cityId":"cartago","cityName":"Cartago","state":"Valle del Cauca","totalBarrios":6,"zones":[{"name":"Centro","postalCode":"762020","localidad":"Centro","lat":4.7461,"lng":-75.9116},{"name":"El Jardín","postalCode":"762021","localidad":"Norte","lat":4.751,"lng":-75.908},{"name":"La Arenera","postalCode":"762022","localidad":"Sur","lat":4.742,"lng":-75.915},{"name":"El Prado","postalCode":"762023","localidad":"Oriente","lat":4.749,"lng":-75.906},{"name":"Santa Ana","postalCode":"762024","localidad":"Occidente","lat":4.744,"lng":-75.918},{"name":"Zaragoza","postalCode":"762025","localidad":"Norte","lat":4.753,"lng":-75.909}]}]}