{"state":"California","stateKey":"california","cities":[{"cityId":"los-angeles","cityName":"Los Ángeles","state":"California","totalBarrios":40,"zones":[{"name":"Hollywood","postalCode":"90028","localidad":"Los Angeles","lat":34.0928,"lng":-118.3287},{"name":"Beverly Hills","postalCode":"90210","localidad":"West LA","lat":34.0736,"lng":-118.4004},{"name":"Santa Monica","postalCode":"90401","localidad":"West LA","lat":34.0195,"lng":-118.4912},{"name":"Downtown LA","postalCode":"90012","localidad":"Downtown","lat":34.0522,"lng":-118.2437},{"name":"Venice Beach","postalCode":"90291","localidad":"West LA","lat":33.985,"lng":-118.4695},{"name":"Koreatown","postalCode":"90020","localidad":"Central LA","lat":34.0578,"lng":-118.3014},{"name":"Silver Lake","postalCode":"90026","localidad":"Central LA","lat":34.0869,"lng":-118.2702},{"name":"Echo Park","postalCode":"90026","localidad":"Central LA","lat":34.0781,"lng":-118.2606},{"name":"Los Feliz","postalCode":"90027","localidad":"Central LA","lat":34.106,"lng":-118.2868},{"name":"East LA","postalCode":"90022","localidad":"East LA","lat":34.0236,"lng":-118.1689},{"name":"Boyle Heights","postalCode":"90033","localidad":"East LA","lat":34.034,"lng":-118.2106},{"name":"Westwood","postalCode":"90024","localidad":"West LA","lat":34.0595,"lng":-118.4451},{"name":"Bel Air","postalCode":"90077","localidad":"West LA","lat":34.083,"lng":-118.4595},{"name":"Malibu","postalCode":"90265","localidad":"West LA","lat":34.0259,"lng":-118.7798},{"name":"Pasadena","postalCode":"91101","localidad":"San Gabriel Valley","lat":34.1478,"lng":-118.1445},{"name":"Glendale","postalCode":"91201","localidad":"San Fernando Valley","lat":34.1425,"lng":-118.2551},{"name":"Burbank","postalCode":"91501","localidad":"San Fernando Valley","lat":34.1808,"lng":-118.309},{"name":"Long Beach","postalCode":"90802","localidad":"South Bay","lat":33.7701,"lng":-118.1937},{"name":"Culver City","postalCode":"90232","localidad":"West LA","lat":34.0211,"lng":-118.3965},{"name":"Inglewood","postalCode":"90301","localidad":"South LA","lat":33.9617,"lng":-118.3531},{"name":"Compton","postalCode":"90220","localidad":"South LA","lat":33.8958,"lng":-118.2201},{"name":"Watts","postalCode":"90002","localidad":"South LA","lat":33.9425,"lng":-118.2408},{"name":"South Central","postalCode":"90011","localidad":"South LA","lat":34.0,"lng":-118.25},{"name":"Huntington Park","postalCode":"90255","localidad":"South LA","lat":33.9819,"lng":-118.2251},{"name":"Van Nuys","postalCode":"91401","localidad":"San Fernando Valley","lat":34.1867,"lng":-118.449},{"name":"North Hollywood","postalCode":"91601","localidad":"San Fernando Valley","lat":34.187,"lng":-118.3813},{"name":"Sherman Oaks","postalCode":"91403","localidad":"San Fernando Valley","lat":34.1504,"lng":-118.449},{"name":"Encino","postalCode":"91316","localidad":"San Fernando Valley","lat":34.1591,"lng":-118.5014},{"name":"West Hollywood","postalCode":"90069","localidad":"Central LA","lat":34.09,"lng":-118.3617},{"name":"Hancock Park","postalCode":"90004","localidad":"Central LA","lat":34.074,"lng":-118.323}]}]}