{"state":"Puebla","stateKey":"puebla","cities":[{"cityId":"puebla","cityName":"Puebla","state":"Puebla","totalBarrios":25,"zones":[{"name":"Centro Histórico","postalCode":"72000","localidad":"Centro","lat":19.0414,"lng":-98.1984},{"name":"Analco","postalCode":"72020","localidad":"Centro","lat":19.038,"lng":-98.189},{"name":"El Carmen","postalCode":"72530","localidad":"Sur","lat":19.019,"lng":-98.205},{"name":"La Paz","postalCode":"72160","localidad":"Norte","lat":19.056,"lng":-98.196},{"name":"Huexotitla","postalCode":"72534","localidad":"Sur","lat":19.022,"lng":-98.212},{"name":"Zavaleta","postalCode":"72150","localidad":"Poniente","lat":19.015,"lng":-98.245},{"name":"Lomas de Angelópolis","postalCode":"72830","localidad":"San Andrés Cholula","lat":19.005,"lng":-98.273},{"name":"San Manuel","postalCode":"72570","localidad":"Sur","lat":19.01,"lng":-98.215},{"name":"La Noria","postalCode":"72440","localidad":"Norte","lat":19.062,"lng":-98.185},{"name":"San Baltazar Campeche","postalCode":"72550","localidad":"Sur","lat":19.025,"lng":-98.205},{"name":"Cholula Centro","postalCode":"72760","localidad":"San Pedro Cholula","lat":19.063,"lng":-98.303},{"name":"Atlixcáyotl","postalCode":"72197","localidad":"Poniente","lat":19.02,"lng":-98.238},{"name":"Mayorazgo","postalCode":"72450","localidad":"Norte","lat":19.065,"lng":-98.19},{"name":"Bosques de San Sebastián","postalCode":"72310","localidad":"Oriente","lat":19.048,"lng":-98.17},{"name":"El Mirador","postalCode":"72540","localidad":"Sur","lat":19.016,"lng":-98.218}]}]}