{"state":"Querétaro","stateKey":"queretaro-state","cities":[{"cityId":"queretaro","cityName":"Querétaro","state":"Querétaro","totalBarrios":15,"zones":[{"name":"Centro Histórico","postalCode":"76000","localidad":"Centro","lat":20.5888,"lng":-100.3899},{"name":"Juriquilla","postalCode":"76226","localidad":"Norte","lat":20.71,"lng":-100.45},{"name":"El Pueblito","postalCode":"76900","localidad":"Sur","lat":20.53,"lng":-100.41},{"name":"Milenio III","postalCode":"76060","localidad":"Poniente","lat":20.605,"lng":-100.43},{"name":"Real de Juriquilla","postalCode":"76230","localidad":"Norte","lat":20.715,"lng":-100.44},{"name":"Satélite","postalCode":"76110","localidad":"Centro","lat":20.593,"lng":-100.405},{"name":"Jardines de Querétaro","postalCode":"76020","localidad":"Centro","lat":20.585,"lng":-100.38},{"name":"Alamos","postalCode":"76160","localidad":"Oriente","lat":20.592,"lng":-100.36},{"name":"San Pablo","postalCode":"76130","localidad":"Norte","lat":20.63,"lng":-100.395},{"name":"Zibatá","postalCode":"76269","localidad":"Norte","lat":20.73,"lng":-100.42}]}]}