{"state":"Quintana Roo","stateKey":"quintana-roo","cities":[{"cityId":"cancun","cityName":"Cancún","state":"Quintana Roo","totalBarrios":20,"zones":[{"name":"Zona Hotelera","postalCode":"77500","localidad":"Zona Hotelera","lat":21.134,"lng":-86.7527},{"name":"Centro (SM 22)","postalCode":"77500","localidad":"Centro","lat":21.1619,"lng":-86.8515},{"name":"Puerto Cancún","postalCode":"77500","localidad":"Norte","lat":21.178,"lng":-86.82},{"name":"Cancún Centro (SM 4)","postalCode":"77501","localidad":"Centro","lat":21.158,"lng":-86.845},{"name":"Residencial Malecón","postalCode":"77505","localidad":"Norte","lat":21.17,"lng":-86.835},{"name":"Supermanzana 50","postalCode":"77533","localidad":"Sur","lat":21.137,"lng":-86.86},{"name":"Alfredo V. Bonfil","postalCode":"77560","localidad":"Poniente","lat":21.085,"lng":-86.88},{"name":"Punta Sam","postalCode":"77400","localidad":"Norte","lat":21.235,"lng":-86.8},{"name":"Isla Mujeres","postalCode":"77400","localidad":"Isla Mujeres","lat":21.232,"lng":-86.733},{"name":"Puerto Juárez","postalCode":"77520","localidad":"Norte","lat":21.185,"lng":-86.815},{"name":"Región 99","postalCode":"77516","localidad":"Centro","lat":21.147,"lng":-86.855},{"name":"Leona Vicario","postalCode":"77590","localidad":"Poniente","lat":20.982,"lng":-87.09}]},{"cityId":"playa-del-carmen","cityName":"Playa del Carmen","state":"Quintana Roo","totalBarrios":10,"zones":[{"name":"Centro (Quinta Avenida)","postalCode":"77710","localidad":"Centro","lat":20.6295,"lng":-87.0739},{"name":"Playacar Fase I","postalCode":"77717","localidad":"Playacar","lat":20.61,"lng":-87.075},{"name":"Playacar Fase II","postalCode":"77717","localidad":"Playacar","lat":20.605,"lng":-87.07},{"name":"Gonzalo Guerrero","postalCode":"77710","localidad":"Centro","lat":20.633,"lng":-87.078},{"name":"Ejidal","postalCode":"77712","localidad":"Norte","lat":20.64,"lng":-87.082},{"name":"Colosio","postalCode":"77728","localidad":"Norte","lat":20.65,"lng":-87.085},{"name":"Villas del Sol","postalCode":"77726","localidad":"Poniente","lat":20.625,"lng":-87.09}]}]}